"",timestamps_ns,OSD.flyTime [s],OSD.latitude,OSD.longitude,OSD.height [ft],OSD.heightMax [ft],OSD.vpsHeight [ft],OSD.altitude [ft],OSD.mileage [ft],OSD.hSpeed [MPH],OSD.hSpeedMax [MPH],OSD.xSpeed [MPH],OSD.xSpeedMax [MPH],OSD.ySpeed [MPH],OSD.ySpeedMax [MPH],OSD.zSpeed [MPH],OSD.zSpeedMax [MPH],OSD.pitch,OSD.roll,OSD.yaw,OSD.yaw [360],OSD.directionOfTravel,OSD.gpsNum,OSD.gpsLevel,OSD.voltageWarning,GIMBAL.pitch,GIMBAL.roll,GIMBAL.yaw,GIMBAL.yaw [360],RC.downlinkSignal,RC.uplinkSignal,RC.aileron,RC.elevator,RC.throttle,RC.rudder,RC.wheelOffset,BATTERY.chargeLevel,BATTERY.currentPV [V],BATTERY.currentCapacity [mAh],BATTERY.fullCapacity [mAh],BATTERY.voltage [V],BATTERY.cellVoltage1 [V],BATTERY.cellVoltage2 [V],BATTERY.maxCellVoltageDeviation,BATTERY.current [A],BATTERY.temperature [F],BATTERY.minTemperature [F],BATTERY.maxTemperature [F],BATTERY.timesCharged,HOME.latitude,HOME.longitude,HOME.distance [ft],HOME.height [ft],HOME.heightLimit [ft],HOME.goHomeMode,HOME.aircraftHeadDirection,HOME.goHomeHeight [ft],HOME.forceLandingHeight [ft],HOME.dataRecorderFileIndex,WEATHER.windSpeed [MPH],WEATHER.maxWindSpeed [MPH],DETAILS.totalTime [s],DETAILS.totalDistance [ft],DETAILS.maxHeight [ft],DETAILS.maxHorizontalSpeed [MPH],DETAILS.maxVerticalSpeed [MPH],DETAILS.photoNum,DETAILS.videoTime [s],ISO8601 Timestamp
0,1719704643.1699998,0.0,37.6206643298481,-122.496190328209,0.0,0.0,0.3,35,0.0,0.0,0.0,0.0,0.0,0.0,0.0,0.0,0.0,-1.5,9.2,-65.0,295.0,,11,4,0,0.0,0.0,-87.5,272.5,,,1024,1024,1024,1024,0,59,7.624,2257,3844,7.624,3.812,3.812,,0.935,81.5,81.5,81.5,2,,,,,,,,,,,,,327.2,4.9,200.1,26.802343,10.961006,0,65422,2024-06-29T12:00:00.000Z
1,1719704643.2700002,0.1,37.6206643279046,-122.496190343422,0.0,0.0,0.3,35,0.0,0.0,0.0,0.0,0.0,0.0,0.0,0.0,0.0,-1.5,9.2,-65.0,295.0,,11,4,0,0.0,0.0,-87.5,272.5,,,1024,1024,1024,1024,0,59,7.624,2257,3844,7.624,3.812,3.812,,0.935,81.5,81.5,81.5,2,,,,,,,,,,,,,327.2,4.9,200.1,26.802343,10.961006,0,65422,2024-06-29T12:00:00.100Z
2,1719704643.37,0.2,37.6206643304363,-122.496190523237,0.0,0.0,0.3,35,0.0,0.0,0.0,0.0,0.0,0.0,0.0,0.0,0.0,-1.5,9.2,-64.9,295.1,,11,4,0,0.0,0.0,-87.5,272.5,,,1024,1024,1024,1024,0,59,7.624,2257,3844,7.624,3.812,3.812,,0.935,81.5,81.5,81.5,2,,,,,,,,,,,,,327.2,4.9,200.1,26.802343,10.961006,0,65422,2024-06-29T12:00:00.200Z
3,1719704643.47,0.3,37.6206643308352,-122.49619053023,0.0,0.0,0.3,35,0.0,0.0,0.0,0.0,0.0,0.0,0.0,0.0,0.0,-1.6,9.2,-64.9,295.1,,11,4,0,0.0,0.0,-87.5,272.5,,,1024,1024,1024,1024,0,59,7.624,2257,3844,7.624,3.812,3.812,,0.935,81.5,81.5,81.5,2,,,,,,,,,,,,,327.2,4.9,200.1,26.802343,10.961006,0,65422,2024-06-29T12:00:00.300Z
4,1719704643.5900002,0.4,37.6206643387221,-122.4961905273,0.0,0.0,0.3,35,0.0,0.0,0.0,0.0,0.0,0.0,0.0,0.0,0.0,-1.6,9.1,-64.6,295.4,,11,4,0,0.0,0.0,-87.5,272.5,,,1024,1024,1024,1024,0,59,7.624,2257,3844,7.624,3.812,3.812,,0.935,81.5,81.5,81.5,2,37.6206636093333,-122.49618998949,0.3,47.9,393.7,1.0,1.0,328.0,16.4,16.0,,,327.2,4.9,200.1,26.802343,10.961006,0,65422,2024-06-29T12:00:00.400Z
5,1719704643.6899998,0.5,37.6206643497539,-122.496190542233,0.0,0.0,0.3,35,0.0,0.0,0.0,0.0,0.0,0.0,0.0,0.0,0.0,-1.6,9.1,-64.8,295.2,,11,4,0,0.0,0.0,-87.5,272.5,,,1024,1024,1024,1024,0,59,7.624,2257,3844,7.624,3.812,3.812,,0.935,81.5,81.5,81.5,2,37.6206636093333,-122.49618998949,0.3,47.9,393.7,1.0,1.0,328.0,16.4,16.0,,,327.2,4.9,200.1,26.802343,10.961006,0,65422,2024-06-29T12:00:00.500Z
6,1719704643.7900002,0.6,37.6206643311456,-122.496190633581,0.0,0.0,0.3,35,0.0,0.0,0.0,0.0,0.0,0.0,0.0,0.0,0.0,-1.6,9.1,-64.7,295.3,,11,4,0,0.0,0.0,-87.5,272.5,,,1024,1024,1024,1024,0,59,7.624,2257,3844,7.624,3.812,3.812,,0.935,81.5,81.5,81.5,2,37.6206636093333,-122.49618998949,0.3,47.9,393.7,1.0,1.0,328.0,16.4,16.0,,,327.2,4.9,200.1,26.802343,10.961006,0,65422,2024-06-29T12:00:00.600Z
7,1719704643.8899999,0.7,37.620664331707,-122.49619065299,0.0,0.0,0.3,35,0.0,0.0,0.0,0.0,0.0,0.0,0.0,0.0,0.0,-1.6,9.1,-64.7,295.3,,11,4,0,0.0,0.0,-87.5,272.5,100.0,,1024,1024,1024,1024,0,59,7.624,2257,3844,7.624,3.812,3.812,,0.935,81.5,81.5,81.5,2,37.6206636093333,-122.49618998949,0.3,47.9,393.7,1.0,1.0,328.0,16.4,16.0,,,327.2,4.9,200.1,26.802343,10.961006,0,65422,2024-06-29T12:00:00.700Z
8,1719704643.9699998,0.8,37.6206643366144,-122.496190619954,0.0,0.0,0.3,35,0.1,0.0,0.0,0.0,0.0,0.0,0.0,0.0,0.0,-1.6,9.1,-64.7,295.3,,11,4,0,0.0,0.0,-87.5,272.5,100.0,,1024,1024,1024,1024,0,59,7.624,2257,3844,7.624,3.812,3.812,,0.935,81.5,81.5,81.5,2,37.6206636093333,-122.49618998949,0.3,47.9,393.7,1.0,1.0,328.0,16.4,16.0,,,327.2,4.9,200.1,26.802343,10.961006,0,65422,2024-06-29T12:00:00.800Z
9,1719704644.0700002,0.9,37.6206643500542,-122.496190598005,0.0,0.0,0.3,35,0.1,0.0,0.0,0.0,0.0,0.0,0.0,0.0,0.0,-1.6,9.1,-64.7,295.3,,11,4,0,0.0,0.0,-87.5,272.5,100.0,100.0,1024,1024,1024,1024,0,59,7.596,2256,3844,7.596,3.798,3.799,0.001,2.312,81.5,81.5,81.5,2,37.6206636093333,-122.49618998949,0.3,47.9,393.7,1.0,1.0,328.0,16.4,16.0,,,327.2,4.9,200.1,26.802343,10.961006,0,65422,2024-06-29T12:00:00.900Z
10,1719704644.19,1.0,37.6206643439132,-122.496190512323,0.0,0.0,0.3,35,0.1,0.0,0.0,0.0,0.0,0.0,0.0,0.0,0.0,-1.6,9.1,-64.7,295.3,,11,4,0,0.0,0.0,-87.5,272.5,100.0,100.0,1024,1024,1024,1024,0,59,7.596,2256,3844,7.596,3.798,3.799,0.001,2.312,81.5,81.5,81.5,2,37.6206636093333,-122.49618998949,0.3,47.9,393.7,1.0,1.0,328.0,16.4,16.0,,,327.2,4.9,200.1,26.802343,10.961006,0,65422,2024-06-29T12:00:01.000Z
11,1719704644.3,1.1,37.6206643404877,-122.496190492697,0.0,0.0,0.3,35,0.1,0.0,0.0,0.0,0.0,0.0,0.0,0.0,0.0,-1.6,9.1,-64.7,295.3,,11,4,0,0.0,0.0,-87.5,272.5,100.0,100.0,1024,1024,1024,1024,0,59,7.596,2256,3844,7.596,3.798,3.799,0.001,2.312,81.5,81.5,81.5,2,37.6206636093333,-122.49618998949,0.3,47.9,393.7,1.0,1.0,328.0,16.4,16.0,,,327.2,4.9,200.1,26.802343,10.961006,0,65422,2024-06-29T12:00:01.100Z
12,1719704644.37,1.2,37.6206643186336,-122.49619062436,0.0,0.0,0.3,35,0.1,0.0,0.0,0.0,0.0,0.0,0.0,0.0,0.0,-1.6,9.1,-64.7,295.3,,11,4,0,0.0,0.0,-87.5,272.5,100.0,100.0,1024,1024,1024,1024,0,59,7.596,2256,3844,7.596,3.798,3.799,0.001,2.312,81.5,81.5,81.5,2,37.6206636093333,-122.49618998949,0.3,47.9,393.7,1.0,1.0,328.0,16.4,16.0,,,327.2,4.9,200.1,26.802343,10.961006,0,65422,2024-06-29T12:00:01.200Z
13,1719704644.47,1.3,37.6206642945416,-122.496190664183,0.0,0.0,0.3,35,0.1,0.0,0.0,0.0,0.0,0.0,0.0,0.0,0.0,-1.6,9.1,-64.7,295.3,,11,4,0,0.0,0.0,-87.5,272.5,100.0,100.0,1024,1024,1024,1024,0,59,7.596,2256,3844,7.596,3.798,3.799,0.001,2.312,81.5,81.5,81.5,2,37.6206636093333,-122.49618998949,0.3,47.9,393.7,1.0,1.0,328.0,16.4,16.0,,,327.2,4.9,200.1,26.802343,10.961006,0,65422,2024-06-29T12:00:01.300Z
14,1719704644.6,1.4,37.620664323129,-122.496190636946,0.0,0.0,0.3,35,0.2,0.0,0.0,0.0,0.0,0.0,0.0,0.0,0.0,-1.6,9.1,-64.7,295.3,,11,4,0,0.0,0.0,-87.5,272.5,100.0,100.0,1024,1024,1024,1024,0,59,7.596,2256,3844,7.596,3.798,3.799,0.001,2.312,81.5,81.5,81.5,2,37.6206636093333,-122.49618998949,0.3,47.9,393.7,1.0,1.0,328.0,16.4,16.0,,,327.2,4.9,200.1,26.802343,10.961006,0,65422,2024-06-29T12:00:01.400Z
15,1719704644.7,1.5,37.6206643154412,-122.496190653488,0.0,0.0,0.3,35,0.2,0.0,0.0,0.0,0.0,0.0,0.0,0.0,0.0,-1.6,9.1,-64.7,295.3,,11,4,0,0.0,0.0,-87.5,272.5,100.0,100.0,1024,1024,1024,1024,0,59,7.596,2256,3844,7.596,3.798,3.799,0.001,2.312,81.5,81.5,81.5,2,37.6206636093333,-122.49618998949,0.3,47.9,393.7,1.0,1.0,328.0,16.4,16.0,,,327.2,4.9,200.1,26.802343,10.961006,0,65422,2024-06-29T12:00:01.500Z
16,1719704644.77,1.6,37.6206642316843,-122.496190618824,0.0,0.0,0.3,35,0.2,0.0,0.0,0.0,0.0,0.0,0.0,0.0,0.0,-1.6,9.1,-64.7,295.3,,11,4,0,0.0,0.0,-87.5,272.5,100.0,100.0,1024,1024,1024,1024,0,59,7.596,2256,3844,7.596,3.798,3.799,0.001,2.312,81.5,81.5,81.5,2,37.6206636093333,-122.49618998949,0.2,47.9,393.7,1.0,1.0,328.0,16.4,16.0,,,327.2,4.9,200.1,26.802343,10.961006,0,65422,2024-06-29T12:00:01.600Z
17,1719704644.8700001,1.7,37.6206642352735,-122.496190601141,0.0,0.0,0.3,35,0.2,0.0,0.0,0.0,0.0,0.0,0.0,0.0,0.0,-1.6,9.1,-64.7,295.3,,11,4,0,0.0,0.0,-87.5,272.5,100.0,100.0,1024,1024,1024,1024,0,59,7.596,2256,3844,7.596,3.798,3.799,0.001,2.312,81.5,81.5,81.5,2,37.6206636093333,-122.49618998949,0.2,47.9,393.7,1.0,1.0,328.0,16.4,16.0,,,327.2,4.9,200.1,26.802343,10.961006,0,65422,2024-06-29T12:00:01.700Z
18,1719704644.9699998,1.8,37.6206642337573,-122.496190509754,-0.3,0.0,0.3,34,0.2,0.0,0.0,0.0,0.0,0.0,0.0,0.0,0.0,-1.6,9.0,-64.7,295.3,,11,4,0,0.0,0.0,-87.5,272.5,100.0,100.0,1024,1024,1024,1024,0,59,7.596,2256,3844,7.596,3.798,3.799,0.001,2.312,81.5,81.5,81.5,2,37.6206636093333,-122.49618998949,0.2,47.9,393.7,1.0,1.0,328.0,16.4,16.0,,,327.2,4.9,200.1,26.802343,10.961006,0,65422,2024-06-29T12:00:01.800Z
19,1719704645.0700002,1.9,37.6206642341902,-122.496190495918,-0.3,0.0,0.3,34,0.2,0.0,0.0,0.0,0.0,0.0,0.0,0.0,0.0,-1.6,8.9,-64.7,295.3,,11,4,0,0.0,0.0,-87.5,272.5,100.0,100.0,1024,1024,1024,1024,0,59,7.595,2256,3844,7.595,3.797,3.798,0.001,2.312,81.5,81.5,81.5,2,37.6206636093333,-122.49618998949,0.2,47.9,393.7,1.0,1.0,328.0,16.4,16.0,,,327.2,4.9,200.1,26.802343,10.961006,0,65422,2024-06-29T12:00:01.900Z
20,1719704645.1699998,2.0,37.620664033942,-122.496190605694,-0.3,0.0,0.3,34,0.3,0.0,0.0,0.0,0.0,0.0,0.0,0.0,0.0,-0.9,8.3,-64.6,295.4,,11,4,0,0.0,0.0,-87.5,272.5,100.0,100.0,1024,1024,1024,1024,0,59,7.595,2256,3844,7.595,3.797,3.798,0.001,2.312,81.5,81.5,81.5,2,37.6206636093333,-122.49618998949,0.2,47.9,393.7,1.0,1.0,328.0,16.4,16.0,,,327.2,4.9,200.1,26.802343,10.961006,0,65422,2024-06-29T12:00:02.000Z
21,1719704645.2700002,2.1,37.6206640455367,-122.496190564429,-0.3,0.0,0.3,34,0.3,0.0,0.0,0.0,0.0,0.0,0.0,0.0,0.0,2.6,3.7,-64.2,295.8,,11,4,0,0.0,0.0,-87.4,272.6,100.0,100.0,1024,1024,1024,1024,0,59,7.595,2256,3844,7.595,3.797,3.798,0.001,2.312,81.5,81.5,81.5,2,37.6206636093333,-122.49618998949,0.2,47.9,393.7,1.0,1.0,328.0,16.4,16.0,,,327.2,4.9,200.1,26.802343,10.961006,0,65422,2024-06-29T12:00:02.100Z
22,1719704645.37,2.2,37.6206638663097,-122.496190573947,-0.3,0.0,0.3,34,0.4,0.0,0.0,0.0,0.0,0.0,0.0,-0.223694,0.0,4.7,-2.5,-62.5,297.5,,11,4,0,0.0,0.0,-87.3,272.7,100.0,100.0,1024,1024,1024,1024,0,59,7.595,2256,3844,7.595,3.797,3.798,0.001,2.312,81.5,81.5,81.5,2,37.6206636093333,-122.49618998949,0.1,47.9,393.7,1.0,1.0,328.0,16.4,16.0,,,327.2,4.9,200.1,26.802343,10.961006,0,65422,2024-06-29T12:00:02.200Z
23,1719704645.47,2.3,37.6206638322494,-122.496190485604,0.0,0.0,0.3,35,0.4,0.0,0.0,0.0,0.0,0.0,0.0,-0.447388,0.0,3.1,-6.3,-61.2,298.8,,11,4,0,0.0,0.0,-87.3,272.7,100.0,100.0,1024,1024,1024,1024,0,59,7.595,2256,3844,7.595,3.797,3.798,0.001,2.312,81.5,81.5,81.5,2,37.6206636093333,-122.49618998949,0.1,47.9,393.7,1.0,1.0,328.0,16.4,16.0,,,327.2,4.9,200.1,26.802343,10.961006,0,65422,2024-06-29T12:00:02.300Z
24,1719704645.57,2.4,37.6206635907532,-122.496190473052,0.0,0.0,0.3,35,0.5,0.447388,0.447388,-0.447388,0.0,0.0,0.0,-0.671082,0.0,2.0,-4.5,-64.9,295.1,177.6,11,4,0,0.0,0.0,-87.3,272.7,100.0,100.0,1024,1024,1024,1024,0,59,7.595,2256,3844,7.595,3.797,3.798,0.001,2.312,81.5,81.5,81.5,2,37.6206638624974,-122.496190543332,0.1,47.9,393.7,1.0,1.0,328.0,16.4,16.0,,,327.2,4.9,200.1,26.802343,10.961006,0,65422,2024-06-29T12:00:02.400Z
25,1719704645.67,2.5,37.6206633399776,-122.496190452774,0.0,0.0,0.6,35,0.6,0.671082,0.671082,-0.671082,0.0,0.0,0.0,-0.894776,0.0,0.8,0.0,-65.2,294.8,176.3,11,4,0,0.0,0.0,-87.3,272.7,100.0,100.0,1024,1024,1024,1024,0,59,7.595,2256,3844,7.595,3.797,3.798,0.001,2.312,81.5,81.5,81.5,2,37.6206638624974,-122.496190543332,0.1,47.9,393.7,1.0,1.0,328.0,16.4,16.0,0.22,0.22,327.2,4.9,200.1,26.802343,10.961006,0,65422,2024-06-29T12:00:02.500Z
26,1719704645.77,2.6,37.6206630628673,-122.496190418816,0.0,0.0,0.6,35,0.7,0.671082,0.671082,-0.671082,0.0,0.0,0.0,-0.894776,0.0,-0.5,4.7,-64.4,295.6,174.4,11,4,0,0.0,0.0,-87.3,272.7,100.0,100.0,1024,1024,1024,1024,0,59,7.595,2256,3844,7.595,3.797,3.798,0.001,2.312,81.5,81.5,81.5,2,37.6206638624974,-122.496190543332,0.2,47.9,393.7,1.0,1.0,328.0,16.4,16.0,0.22,0.22,327.2,4.9,200.1,26.802343,10.961006,0,65422,2024-06-29T12:00:02.600Z
27,1719704645.8700001,2.7,37.6206628263041,-122.496190433586,0.0,0.0,0.6,35,0.8,0.447388,0.671082,-0.447388,0.0,0.0,0.0,-0.894776,0.0,-1.5,5.2,-64.7,295.3,182.8,11,4,0,0.0,0.0,-87.3,272.7,100.0,100.0,1024,1024,1106,1024,0,59,7.595,2256,3844,7.595,3.797,3.798,0.001,2.312,81.5,81.5,81.5,2,37.6206638624974,-122.496190543332,0.3,47.9,393.7,1.0,1.0,328.0,16.4,16.0,0.44,0.44,327.2,4.9,200.1,26.802343,10.961006,0,65422,2024-06-29T12:00:02.700Z
28,1719704645.9699998,2.8,37.620662244041,-122.496190416467,0.3,0.3,0.9,35,1.0,0.447388,0.671082,-0.447388,0.0,0.0,0.0,-0.894776,0.0,-1.5,2.9,-65.2,294.8,178.6,11,4,0,0.0,0.0,-87.3,272.7,100.0,100.0,1024,1024,1136,1024,0,59,7.595,2256,3844,7.595,3.797,3.798,0.001,2.312,81.5,81.5,81.5,2,37.6206638624974,-122.496190543332,0.5,47.9,393.7,1.0,1.0,328.0,16.4,16.0,0.44,0.44,327.2,4.9,200.1,26.802343,10.961006,0,65422,2024-06-29T12:00:02.800Z
29,1719704646.0700002,2.9,37.6206620652888,-122.496190475878,0.3,0.3,0.9,35,1.1,0.223694,0.671082,-0.223694,0.0,0.0,0.0,-0.894776,0.0,-0.8,2.4,-64.6,295.4,194.7,11,4,0,0.0,0.0,-87.3,272.7,100.0,100.0,1024,1024,1136,1024,0,59,7.595,2256,3844,7.595,3.797,3.798,0.001,3.375,81.5,81.5,81.5,2,37.6206638624974,-122.496190543332,0.6,47.9,393.7,1.0,1.0,328.0,16.4,16.0,0.67,0.67,327.2,4.9,200.1,26.802343,10.961006,0,65422,2024-06-29T12:00:02.900Z
30,1719704646.1699998,3.0,37.620661638036,-122.496190169977,0.6,0.6,0.9,35,1.2,0.223694,0.671082,-0.223694,0.0,0.0,0.0,-1.11847,0.0,-0.9,1.6,-64.3,295.7,150.4,11,4,0,0.0,0.0,-87.3,272.7,100.0,100.0,1024,1024,1139,1024,0,59,7.595,2256,3844,7.595,3.797,3.798,0.001,3.375,81.5,81.5,81.5,2,37.6206638624974,-122.496190543332,0.8,47.9,393.7,1.0,1.0,328.0,16.4,16.0,0.67,0.67,327.2,4.9,200.1,26.802343,10.961006,0,65422,2024-06-29T12:00:03.000Z
31,1719704646.2700002,3.1,37.6206615048588,-122.496190315188,0.6,0.6,0.9,35,1.3,0.223694,0.671082,-0.223694,0.0,0.0,0.0,-1.565858,0.0,-1.1,2.3,-64.2,295.8,220.8,11,4,0,0.0,0.0,-87.3,272.7,100.0,100.0,1024,1024,1150,1024,0,59,7.595,2256,3844,7.595,3.797,3.798,0.001,3.375,81.5,81.5,81.5,2,37.6206638624974,-122.496190543332,0.8,47.9,393.7,1.0,1.0,328.0,16.4,16.0,0.89,0.89,327.2,4.9,200.1,26.802343,10.961006,0,65422,2024-06-29T12:00:03.100Z
32,1719704646.37,3.2,37.6206612868485,-122.496189974314,0.9,0.9,1.3,36,1.4,0.223694,0.671082,-0.223694,0.0,0.0,0.0,-1.565858,0.0,0.1,5.2,-63.6,296.4,128.9,11,4,0,0.0,0.0,-87.3,272.7,100.0,100.0,1024,1024,1163,1024,0,59,7.595,2256,3844,7.595,3.797,3.798,0.001,3.375,81.5,81.5,81.5,2,37.6206638624974,-122.496190543332,0.9,47.9,393.7,1.0,1.0,328.0,16.4,16.0,1.11,1.11,327.2,4.9,200.1,26.802343,10.961006,0,65422,2024-06-29T12:00:03.200Z
33,1719704646.47,3.3,37.6206611818757,-122.496190062054,1.3,1.3,1.3,36,1.5,0.0,0.671082,0.0,0.0,0.0,0.0,-1.565858,0.0,0.2,6.7,-63.1,296.9,,11,4,0,0.0,0.0,-87.3,272.7,100.0,100.0,1024,1024,1165,1024,0,59,7.595,2256,3844,7.595,3.797,3.798,0.001,3.375,81.5,81.5,81.5,2,37.6206638624974,-122.496190543332,0.9,47.9,393.7,1.0,1.0,328.0,16.4,16.0,1.11,1.11,327.2,4.9,200.1,26.802343,10.961006,0,65422,2024-06-29T12:00:03.300Z
34,1719704646.57,3.4,37.6206609487184,-122.496189702864,1.6,1.6,1.3,36,1.6,0.0,0.671082,0.0,0.0,0.0,0.0,-1.565858,0.0,1.1,3.6,-63.9,296.1,,11,4,0,0.0,0.0,-87.3,272.7,100.0,100.0,1024,1024,1169,1024,0,59,7.595,2256,3844,7.595,3.797,3.798,0.001,3.375,81.5,81.5,81.5,2,37.6206638624974,-122.496190543332,1.0,47.9,393.7,1.0,1.0,328.0,16.4,16.0,1.34,1.34,327.2,4.9,200.1,26.802343,10.961006,0,65422,2024-06-29T12:00:03.400Z
35,1719704646.63,3.5,37.6206609727909,-122.496189613023,1.6,1.6,1.6,36,1.6,0.0,0.671082,0.0,0.0,0.0,0.0,-1.565858,0.0,2.6,2.0,-64.7,295.3,,11,4,0,0.0,0.0,-87.3,272.7,100.0,100.0,1024,1024,1176,1024,0,59,7.595,2256,3844,7.595,3.797,3.798,0.001,3.375,81.5,81.5,81.5,2,37.6206638624974,-122.496190543332,1.0,47.9,393.7,1.0,1.0,328.0,16.4,16.0,1.34,1.34,327.2,4.9,200.1,26.802343,10.961006,0,65422,2024-06-29T12:00:03.500Z
36,1719704646.7299998,3.6,37.6206611741005,-122.496189109012,1.9,1.9,2.2,37,1.8,0.223694,0.671082,0.0,0.0,0.223694,0.223694,-1.789552,0.0,1.7,0.9,-64.8,295.2,63.2,11,4,0,0.0,0.0,-87.2,272.8,100.0,100.0,1024,1024,1179,1024,0,59,7.595,2256,3844,7.595,3.797,3.798,0.001,3.375,81.5,81.5,81.5,2,37.6206638624974,-122.496190543332,1.0,47.9,393.7,1.0,1.0,328.0,16.4,16.0,1.34,1.34,327.2,4.9,200.1,26.802343,10.961006,0,65422,2024-06-29T12:00:03.600Z
37,1719704646.8300002,3.7,37.6206611556082,-122.49618884248,2.2,2.2,2.6,37,1.9,0.447388,0.671082,0.0,0.0,0.447388,0.447388,-1.789552,0.0,-2.8,-1.4,-64.7,295.3,95.0,11,4,0,0.0,0.0,-87.2,272.8,100.0,100.0,1024,1024,1179,1024,0,59,7.595,2256,3844,7.595,3.797,3.798,0.001,3.375,81.5,81.5,81.5,2,37.6206638624974,-122.496190543332,1.1,47.9,393.7,1.0,1.0,328.0,16.4,16.0,1.56,1.56,327.2,4.9,200.1,26.802343,10.961006,0,65422,2024-06-29T12:00:03.700Z
38,1719704646.9299998,3.8,37.6206612067666,-122.496188772475,2.6,2.6,2.9,37,1.9,0.316351,0.671082,-0.223694,0.0,0.223694,0.447388,-2.013246,0.0,-3.1,0.1,-64.8,295.2,47.3,11,4,0,0.0,0.0,-87.2,272.8,100.0,100.0,1024,1024,1179,1024,0,59,7.595,2256,3844,7.595,3.797,3.798,0.001,3.375,81.5,81.5,81.5,2,37.6206638624974,-122.496190543332,1.0,47.9,393.7,1.0,1.0,328.0,16.4,16.0,1.56,1.56,327.2,4.9,200.1,26.802343,10.961006,0,65422,2024-06-29T12:00:03.800Z
39,1719704647.0300002,3.9,37.6206610559249,-122.496188566004,2.9,2.9,3.2,38,2.0,0.316351,0.671082,-0.223694,0.0,0.223694,0.447388,-2.013246,0.0,-3.5,2.8,-64.1,295.9,132.6,11,4,0,0.0,0.0,-87.2,272.8,100.0,100.0,1024,1024,1138,1024,0,59,7.51,2252,3844,7.51,3.754,3.756,0.002,6.488,81.5,81.5,81.5,2,37.6206638624974,-122.496190543332,1.1,47.9,393.7,1.0,1.0,328.0,16.4,16.0,1.56,1.56,327.2,4.9,200.1,26.802343,10.961006,0,65422,2024-06-29T12:00:03.900Z
40,1719704647.1299999,4.0,37.6206610374205,-122.496188516228,3.2,3.2,3.6,38,2.0,0.500194,0.671082,-0.223694,0.0,0.447388,0.447388,-2.013246,0.0,-7.0,4.9,-64.2,295.8,115.1,11,4,0,0.0,0.0,-87.2,272.8,100.0,100.0,1024,1024,1121,1024,0,59,7.51,2252,3844,7.51,3.754,3.756,0.002,6.488,81.5,81.5,81.5,2,37.6206638624974,-122.496190543332,1.1,47.9,393.7,1.0,1.0,328.0,16.4,16.0,1.78,1.78,327.2,4.9,200.1,26.802343,10.961006,0,65422,2024-06-29T12:00:04.000Z
41,1719704647.24,4.1,37.6206609298791,-122.496188290266,3.6,3.6,3.6,38,2.1,0.447388,0.671082,0.0,0.0,0.447388,0.447388,-1.565858,0.0,-9.6,5.3,-64.9,295.1,121.0,11,4,0,0.0,0.0,-87.2,272.8,100.0,100.0,1024,1024,1091,1024,0,59,7.51,2252,3844,7.51,3.754,3.756,0.002,6.488,81.5,81.5,81.5,2,37.6206638624974,-122.496190543332,1.2,47.9,393.7,1.0,1.0,328.0,16.4,16.0,1.78,1.78,327.2,4.9,200.1,26.802343,10.961006,0,65422,2024-06-29T12:00:04.100Z
42,1719704647.34,4.2,37.6206607195061,-122.496187802476,3.6,3.6,3.9,38,2.2,0.447388,0.671082,0.0,0.0,0.447388,0.447388,-1.11847,0.0,-8.7,1.2,-65.0,295.0,118.5,11,4,0,0.0,0.0,-87.2,272.8,100.0,100.0,1024,1224,1091,1024,0,59,7.51,2252,3844,7.51,3.754,3.756,0.002,6.488,81.5,81.5,81.5,2,37.6206638624974,-122.496190543332,1.3,47.9,393.7,1.0,1.0,328.0,16.4,16.0,1.78,1.78,327.2,4.9,200.1,26.802343,10.961006,0,65422,2024-06-29T12:00:04.200Z
43,1719704647.44,4.3,37.6206607024265,-122.496187622345,3.9,3.9,3.6,39,2.3,0.223694,0.671082,0.0,0.0,0.223694,0.447388,-0.671082,0.0,-5.8,-0.2,-64.8,295.2,96.8,11,4,0,0.0,0.0,-87.2,272.8,100.0,100.0,1024,1433,1024,1024,0,59,7.51,2252,3844,7.51,3.754,3.756,0.002,6.488,81.5,81.5,81.5,2,37.6206638624974,-122.496190543332,1.4,47.9,393.7,1.0,1.0,328.0,16.4,16.0,2.01,2.01,327.2,4.9,200.1,26.802343,10.961006,0,65422,2024-06-29T12:00:04.300Z
44,1719704647.54,4.4,37.6206604480837,-122.496187071657,3.9,3.9,3.6,39,2.5,0.223694,0.671082,0.0,0.0,0.223694,0.447388,-0.447388,0.0,-4.8,-0.6,-64.9,295.1,120.2,11,4,0,0.0,0.0,-87.2,272.8,100.0,100.0,1024,1433,1024,1024,0,59,7.51,2252,3844,7.51,3.754,3.756,0.002,6.488,81.5,81.5,81.5,2,37.6206638624974,-122.496190543332,1.5,47.9,393.7,1.0,1.0,328.0,16.4,16.0,2.01,2.01,327.2,4.9,200.1,26.802343,10.961006,0,65422,2024-06-29T12:00:04.400Z
45,1719704647.64,4.5,37.6206604216444,-122.496186884015,3.9,3.9,3.9,39,2.5,0.223694,0.671082,0.0,0.0,0.223694,0.447388,-0.223694,0.0,-8.7,-0.8,-64.9,295.1,100.0,11,4,0,0.0,0.0,-87.2,272.8,100.0,100.0,1046,1610,1024,1024,0,59,7.51,2252,3844,7.51,3.754,3.756,0.002,6.488,81.5,81.5,81.5,2,37.6206638624974,-122.496190543332,1.6,47.9,393.7,1.0,1.0,328.0,16.4,16.0,2.23,2.23,327.2,4.9,200.1,26.802343,10.961006,0,65422,2024-06-29T12:00:04.500Z
46,1719704647.74,4.6,37.6206602413758,-122.496186848481,3.9,3.9,3.9,39,2.6,0.0,0.671082,0.0,0.0,0.0,0.447388,0.0,0.0,-16.4,-0.3,-64.7,295.3,,11,4,0,0.0,0.0,-87.2,272.8,100.0,100.0,1072,1660,1024,1024,0,59,7.51,2252,3844,7.51,3.754,3.756,0.002,6.488,81.5,81.5,81.5,2,37.6206638624974,-122.496190543332,1.6,47.9,393.7,1.0,1.0,328.0,16.4,16.0,2.23,2.23,327.2,4.9,200.1,26.802343,10.961006,0,65422,2024-06-29T12:00:04.600Z
47,1719704647.84,4.7,37.6206602593906,-122.496186830486,3.9,3.9,3.9,39,2.6,0.0,0.671082,0.0,0.0,0.0,0.447388,0.223694,0.223694,-18.8,0.5,-60.3,299.7,,11,4,0,0.0,0.0,-87.2,272.8,100.0,100.0,1151,1632,1024,1024,0,59,7.51,2252,3844,7.51,3.754,3.756,0.002,6.488,81.5,81.5,81.5,2,37.6206638624974,-122.496190543332,1.6,47.9,393.7,1.0,1.0,328.0,16.4,16.0,2.46,2.46,327.2,4.9,200.1,26.802343,10.961006,0,65422,2024-06-29T12:00:04.700Z
48,1719704647.94,4.8,37.6206604212051,-122.496187307544,3.9,3.9,3.6,39,2.8,0.80654,0.80654,0.447388,0.447388,-0.671082,0.447388,0.0,0.223694,-17.8,0.9,-59.0,301.0,293.1,11,4,0,0.0,0.0,-87.2,272.8,100.0,100.0,1245,1563,1024,1024,0,59,7.51,2252,3844,7.51,3.754,3.756,0.002,6.488,81.5,81.5,81.5,2,37.6206638624974,-122.496190543332,1.5,47.9,393.7,1.0,1.0,328.0,16.4,16.0,2.68,2.68,327.2,4.9,200.1,26.802343,10.961006,0,65422,2024-06-29T12:00:04.800Z
49,1719704648.05,4.9,37.620660679762,-122.496187788525,3.9,3.9,3.6,39,2.9,1.11847,1.11847,0.671082,0.671082,-0.894776,0.447388,0.0,0.223694,-22.8,1.3,-58.2,301.8,304.1,11,4,0,0.0,0.0,-87.2,272.8,100.0,100.0,1228,1537,1077,1066,0,59,7.532,2252,3844,7.532,3.766,3.767,0.002,6.488,81.5,81.5,81.5,2,37.6206638624974,-122.496190543332,1.4,47.9,393.7,1.0,1.0,328.0,16.4,16.0,2.68,2.68,327.2,4.9,200.1,26.802343,10.961006,0,65422,2024-06-29T12:00:04.900Z
50,1719704648.15,5.0,37.6206609828183,-122.496188559402,3.9,3.9,3.6,39,3.2,1.61308,1.61308,0.894776,0.894776,-1.342164,0.447388,0.0,0.223694,-27.0,2.8,-58.1,301.9,296.3,11,4,0,0.0,0.0,-87.2,272.8,100.0,100.0,1207,1497,1101,1146,0,59,7.532,2252,3844,7.532,3.766,3.767,0.002,6.488,81.5,81.5,81.5,2,37.6206638624974,-122.496190543332,1.1,47.9,393.7,1.0,1.0,328.0,16.4,16.0,2.9,2.9,327.2,4.9,200.1,26.802343,10.961006,0,65422,2024-06-29T12:00:05.000Z
51,1719704648.2499998,5.1,37.6206615233825,-122.496189552778,3.9,3.9,3.6,39,3.5,2.41962,2.41962,1.342164,1.342164,-2.013246,0.447388,0.0,0.223694,-26.0,2.8,-58.7,301.3,304.4,11,4,0,0.0,0.0,-87.2,272.8,100.0,100.0,1206,1450,1109,1169,0,59,7.532,2252,3844,7.532,3.766,3.767,0.002,6.488,81.5,81.5,81.5,2,37.6206638624974,-122.496190543332,0.9,47.9,393.7,1.0,1.0,328.0,16.4,16.0,3.13,3.13,327.2,4.9,200.1,26.802343,10.961006,0,65422,2024-06-29T12:00:05.100Z
52,1719704648.3500001,5.2,37.6206623286314,-122.496191168725,3.9,3.9,3.6,39,4.1,3.35541,3.35541,2.013246,2.013246,-2.684328,0.447388,0.0,0.223694,-21.1,3.3,-58.6,301.4,302.1,11,4,0,0.0,0.0,-87.1,272.9,100.0,100.0,1249,1506,1130,1170,0,59,7.532,2252,3844,7.532,3.766,3.767,0.002,6.488,81.5,81.5,81.5,2,37.6206638624974,-122.496190543332,0.5,47.9,393.7,1.0,1.0,328.0,16.4,16.0,3.13,3.13,327.2,4.9,200.1,26.802343,10.961006,0,65422,2024-06-29T12:00:05.200Z
53,1719704648.4499998,5.3,37.6206633451908,-122.496192936758,3.9,3.9,3.6,39,4.7,3.848577,3.848577,2.23694,2.23694,-3.131716,0.447388,-0.223694,0.223694,-16.4,3.8,-58.0,302.0,305.9,11,4,0,0.0,0.0,-86.9,273.1,100.0,100.0,1255,1506,1177,1187,0,59,7.532,2252,3844,7.532,3.766,3.767,0.002,6.488,81.5,81.5,81.5,2,37.6206638624974,-122.496190543332,0.7,47.9,393.7,1.0,1.0,328.0,16.4,16.0,3.35,3.35,327.2,4.9,200.1,26.802343,10.961006,0,65422,2024-06-29T12:00:05.300Z
54,1719704648.5500002,5.4,37.6206638716462,-122.496194651743,3.9,3.9,3.9,39,5.2,4.160948,4.160948,2.460634,2.460634,-3.35541,0.447388,-0.447388,0.223694,-18.5,4.6,-58.2,301.8,291.1,11,4,0,0.0,0.0,-86.7,273.3,100.0,100.0,1253,1477,1215,1194,0,59,7.532,2252,3844,7.532,3.766,3.767,0.002,6.488,81.5,81.5,81.5,2,37.6206638624974,-122.496190543332,1.1,47.9,393.7,1.0,1.0,328.0,16.4,16.0,3.57,3.57,327.2,4.9,200.1,26.802343,10.961006,0,65422,2024-06-29T12:00:05.400Z
55,1719704648.6499999,5.5,37.6206650337384,-122.496196540367,4.2,4.2,3.6,39,5.9,4.78726,4.78726,2.908022,2.908022,-3.802798,0.447388,-0.223694,0.223694,-21.0,5.1,-58.4,301.6,307.8,11,4,0,0.0,0.0,-86.5,273.5,100.0,100.0,1255,1468,1260,1198,0,59,7.532,2252,3844,7.532,3.766,3.767,0.002,6.488,81.5,81.5,81.5,2,37.6206638624974,-122.496190543332,1.7,47.9,393.7,1.0,1.0,328.0,16.4,16.0,3.57,3.57,327.2,4.9,200.1,26.802343,10.961006,0,65422,2024-06-29T12:00:05.500Z
56,1719704648.7500002,5.6,37.6206656684119,-122.496198901287,4.2,4.2,3.9,39,6.7,5.415058,5.415058,3.35541,3.35541,-4.250186,0.447388,-0.671082,0.223694,-17.2,5.6,-57.7,302.3,288.7,11,4,0,0.0,0.0,-86.3,273.7,100.0,100.0,1270,1480,1292,1199,0,59,7.532,2252,3844,7.532,3.766,3.767,0.002,6.488,81.5,81.5,81.5,2,37.6206638624974,-122.496190543332,2.5,47.9,393.7,1.0,1.0,328.0,16.4,16.0,3.8,3.8,327.2,4.9,200.1,26.802343,10.961006,0,65422,2024-06-29T12:00:05.600Z
57,1719704648.85,5.7,37.6206674293856,-122.49620162397,4.5,4.5,4.2,39,7.7,5.729361,5.729361,3.579104,3.579104,-4.47388,0.447388,-1.342164,0.223694,-15.0,6.6,-57.7,302.3,309.2,11,4,0,0.0,0.0,-86.0,274.0,100.0,100.0,1314,1512,1337,1199,0,59,7.532,2252,3844,7.532,3.766,3.767,0.002,6.488,81.5,81.5,81.5,2,37.6206638624974,-122.496190543332,3.4,47.9,393.7,1.0,1.0,328.0,16.4,16.0,3.8,3.8,327.2,4.9,200.1,26.802343,10.961006,0,65422,2024-06-29T12:00:05.700Z
58,1719704648.96,5.8,37.6206685729194,-122.496204211238,4.5,4.5,4.5,39,8.5,6.18707,6.18707,4.026492,4.026492,-4.697574,0.447388,-1.789552,0.223694,-17.2,7.2,-57.2,302.8,299.1,11,4,0,0.0,0.0,-85.7,274.3,100.0,100.0,1347,1552,1366,1205,0,59,7.532,2252,3844,7.532,3.766,3.767,0.002,6.488,81.5,81.5,81.5,2,37.6206638624974,-122.496190543332,4.3,47.9,393.7,1.0,1.0,328.0,16.4,16.0,4.02,4.02,327.2,4.9,200.1,26.802343,10.961006,0,65422,2024-06-29T12:00:05.800Z
59,1719704649.06,5.9,37.6206703932653,-122.496206809159,4.9,4.9,4.9,40,9.5,6.502534,6.502534,4.250186,4.250186,-4.921268,0.447388,-2.013246,0.223694,-14.4,6.7,-56.7,303.3,311.4,11,4,0,0.0,0.0,-85.3,274.7,100.0,100.0,1388,1572,1402,1216,0,59,7.532,2251,3844,7.532,3.766,3.767,0.002,6.273,81.5,81.5,81.5,2,37.6206638624974,-122.496190543332,5.2,47.9,393.7,1.0,1.0,328.0,16.4,16.0,4.02,4.02,327.2,4.9,200.1,26.802343,10.961006,0,65422,2024-06-29T12:00:05.900Z
60,1719704649.16,6.0,37.6206716610215,-122.496209605871,5.2,5.2,5.5,40,10.5,6.96691,6.96691,4.697574,4.697574,-5.144962,0.447388,-2.908022,0.223694,-18.5,4.8,-56.7,303.3,299.7,10,4,0,0.0,0.0,-85.0,275.0,100.0,100.0,1394,1579,1433,1228,0,59,7.532,2251,3844,7.532,3.766,3.767,0.002,6.273,81.5,81.5,81.5,2,37.6206638624974,-122.496190543332,6.1,47.9,393.7,1.0,1.0,328.0,16.4,16.0,4.02,4.02,327.2,4.9,200.1,26.802343,10.961006,0,65422,2024-06-29T12:00:06.000Z
61,1719704649.26,6.1,37.62067387513,-122.49621264394,5.9,5.9,5.9,41,11.7,7.449379,7.449379,4.921268,4.921268,-5.59235,0.447388,-3.131716,0.223694,-24.2,5.9,-56.9,303.1,312.6,10,4,0,0.0,0.0,-84.7,275.3,100.0,100.0,1394,1579,1433,1228,0,59,7.532,2251,3844,7.532,3.766,3.767,0.002,6.273,81.5,81.5,81.5,2,37.6206638624974,-122.496190543332,7.3,47.9,393.7,1.0,1.0,328.0,16.4,16.0,4.25,4.25,327.2,4.9,200.1,26.802343,10.961006,0,65422,2024-06-29T12:00:06.100Z
62,1719704649.36,6.2,37.6206757294397,-122.496216254209,6.2,6.2,5.9,41,12.9,8.231209,8.231209,5.59235,5.59235,-6.039738,0.447388,-3.579104,0.223694,-23.9,9.9,-56.9,303.1,302.9,10,4,0,0.0,0.0,-84.3,275.7,100.0,100.0,1395,1619,1454,1179,0,59,7.491,2251,3844,7.491,3.741,3.75,0.009,6.273,81.5,81.5,81.5,2,37.6206638624974,-122.496190543332,8.5,47.9,393.7,1.0,1.0,328.0,16.4,16.0,4.25,4.25,327.2,4.9,200.1,26.802343,10.961006,0,65422,2024-06-29T12:00:06.200Z
63,1719704649.46,6.3,37.6206779342322,-122.496219221678,6.8,6.8,6.2,42,14.1,9.017393,9.017393,6.263432,6.263432,-6.487126,0.447388,-4.250186,0.223694,-18.4,11.0,-56.0,304.0,313.1,10,4,0,0.0,0.0,-84.0,276.0,100.0,100.0,1397,1641,1505,1146,0,59,7.491,2251,3844,7.491,3.741,3.75,0.009,6.273,81.5,81.5,81.5,2,37.6206638624974,-122.496190543332,9.7,47.9,393.7,1.0,1.0,328.0,16.4,16.0,4.47,4.47,327.2,4.9,200.1,26.802343,10.961006,0,65422,2024-06-29T12:00:06.300Z
64,1719704649.56,6.4,37.6206805854877,-122.496223142881,7.5,7.5,6.8,42,15.6,9.811984,9.811984,7.158208,7.158208,-6.71082,0.447388,-5.368656,0.223694,-21.3,9.2,-55.2,304.8,310.4,11,4,0,0.0,0.0,-83.7,276.3,100.0,100.0,1397,1641,1505,1146,0,59,7.491,2251,3844,7.491,3.741,3.75,0.009,6.273,81.5,81.5,81.5,2,37.6206638624974,-122.496190543332,11.2,47.9,393.7,1.0,1.0,328.0,16.4,16.0,4.47,4.47,327.2,4.9,200.1,26.802343,10.961006,0,65422,2024-06-29T12:00:06.400Z
65,1719704649.66,6.5,37.6206835715826,-122.496226645356,8.2,8.2,7.8,43,17.0,10.292355,10.292355,7.605596,7.605596,-6.934514,0.447388,-5.59235,0.223694,-24.4,6.2,-55.4,304.6,317.1,11,4,0,0.0,0.0,-83.5,276.5,100.0,100.0,1407,1658,1555,1160,0,59,7.491,2251,3844,7.491,3.741,3.75,0.009,6.273,81.5,81.5,81.5,2,37.6206638624974,-122.496190543332,12.6,47.9,393.7,1.0,1.0,328.0,16.4,16.0,4.47,4.47,327.2,4.9,200.1,26.802343,10.961006,0,65422,2024-06-29T12:00:06.500Z
66,1719704649.77,6.6,37.6206864693349,-122.496231057922,9.1,9.1,8.5,44,18.7,10.924423,10.924423,8.052984,8.052984,-7.381902,0.447388,-6.039738,0.223694,-24.6,5.1,-55.1,304.9,309.6,11,4,0,0.0,0.0,-83.3,276.7,100.0,100.0,1408,1662,1586,1125,0,59,7.491,2251,3844,7.491,3.741,3.75,0.009,6.273,81.5,81.5,81.5,2,37.6206638624974,-122.496190543332,14.3,47.9,393.7,1.0,1.0,328.0,16.4,16.0,4.69,4.69,327.2,4.9,200.1,26.802343,10.961006,0,65422,2024-06-29T12:00:06.600Z
67,1719704649.8700001,6.7,37.6206894645173,-122.496234568612,9.8,9.8,8.8,44,20.2,11.388639,11.388639,8.052984,8.052984,-8.052984,0.447388,-6.487126,0.223694,-23.5,5.3,-57.2,302.8,317.1,11,4,0,0.0,0.0,-83.2,276.8,100.0,100.0,1405,1660,1605,1087,0,59,7.491,2251,3844,7.491,3.741,3.75,0.009,6.273,81.5,81.5,81.5,2,37.6206638624974,-122.496190543332,15.7,47.9,393.7,1.0,1.0,328.0,16.4,16.0,4.69,4.69,327.2,4.9,200.1,26.802343,10.961006,0,65422,2024-06-29T12:00:06.700Z
68,1719704649.9699998,6.8,37.6206923606246,-122.496239770769,10.8,10.8,9.8,45,22.0,11.872652,11.872652,8.052984,8.052984,-8.724066,0.447388,-6.934514,0.223694,-24.4,5.7,-59.2,300.8,305.1,11,4,0,0.0,0.0,-83.1,276.9,100.0,100.0,1396,1661,1615,1081,0,59,7.491,2251,3844,7.491,3.741,3.75,0.009,6.273,81.5,81.5,81.5,2,37.6206638624974,-122.496190543332,17.6,47.9,393.7,1.0,1.0,328.0,16.4,16.0,4.69,4.69,327.2,4.9,200.1,26.802343,10.961006,0,65422,2024-06-29T12:00:06.800Z
69,1719704650.0700002,6.9,37.6206959141131,-122.496244567405,11.4,11.4,10.8,46,23.9,12.353904,12.353904,8.276678,8.276678,-9.171454,0.447388,-7.605596,0.223694,-25.9,5.4,-59.9,300.1,313.0,11,4,0,0.0,0.0,-83.0,277.0,100.0,100.0,1392,1667,1616,1037,0,59,7.491,2246,3844,7.491,3.741,3.75,0.009,9.43,81.7,81.5,81.6,2,37.6206638624974,-122.496190543332,19.5,47.9,393.7,1.0,1.0,328.0,16.4,16.0,4.69,4.69,327.2,4.9,200.1,26.802343,10.961006,0,65422,2024-06-29T12:00:06.900Z
70,1719704650.1699998,7.0,37.6206995773081,-122.496249942001,12.4,12.4,11.4,47,26.0,13.15237,13.15237,8.724066,8.724066,-9.842536,0.447388,-8.052984,0.223694,-25.0,5.7,-59.9,300.1,310.7,11,4,0,0.0,0.0,-82.9,277.1,100.0,100.0,1390,1684,1625,1024,0,59,7.491,2246,3844,7.491,3.741,3.75,0.009,9.43,81.7,81.5,81.6,2,37.6206638624974,-122.496190543332,21.5,47.9,393.7,1.0,1.0,328.0,16.4,16.0,4.92,4.92,327.2,4.9,200.1,26.802343,10.961006,0,65422,2024-06-29T12:00:07.000Z
71,1719704650.2700002,7.1,37.6207030878181,-122.496254980535,13.4,13.4,11.4,48,27.9,13.951764,13.951764,9.171454,9.171454,-10.513618,0.447388,-8.724066,0.223694,-21.7,7.7,-60.0,300.0,311.3,11,4,0,0.0,0.0,-82.9,277.1,100.0,100.0,1327,1684,1623,1024,0,59,7.491,2246,3844,7.491,3.741,3.75,0.009,9.43,81.7,81.5,81.6,2,37.6206638624974,-122.496190543332,23.4,47.9,393.7,1.0,1.0,328.0,16.4,16.0,4.92,4.92,327.2,4.9,200.1,26.802343,10.961006,0,65422,2024-06-29T12:00:07.100Z
72,1719704650.37,7.2,37.620707041858,-122.496260159384,14.7,14.7,11.4,49,30.0,14.583064,14.583064,9.618842,9.618842,-10.961006,0.447388,-9.395148,0.223694,-18.6,8.9,-59.7,300.3,313.9,11,4,0,0.0,0.0,-82.9,277.1,100.0,100.0,1280,1684,1610,1024,0,59,7.491,2246,3844,7.491,3.741,3.75,0.009,9.43,81.7,81.5,81.6,2,37.6206638624974,-122.496190543332,25.5,47.9,393.7,1.0,1.0,328.0,16.4,16.0,4.92,4.92,327.2,4.9,200.1,26.802343,10.961006,0,65422,2024-06-29T12:00:07.200Z
73,1719704650.47,7.3,37.6207112651197,-122.496266034802,15.7,15.7,21.6,50,32.3,14.73157,14.73157,9.842536,9.842536,-10.961006,0.447388,-8.94776,0.223694,-19.1,8.6,-60.2,299.8,312.2,11,4,0,0.0,0.0,-82.8,277.2,100.0,100.0,1222,1663,1545,1024,0,59,7.491,2246,3844,7.491,3.741,3.75,0.009,9.43,81.7,81.5,81.6,2,37.6206638624974,-122.496190543332,27.8,47.9,393.7,1.0,1.0,328.0,16.4,16.0,4.92,4.92,327.2,4.9,200.1,26.802343,10.961006,0,65422,2024-06-29T12:00:07.300Z
74,1719704650.58,7.4,37.6207147329704,-122.496270829669,16.7,16.7,23.6,51,34.2,14.881956,14.881956,10.06623,10.06623,-10.961006,0.447388,-8.500372,0.223694,-20.1,8.3,-59.5,300.5,312.3,11,4,0,0.0,0.0,-82.8,277.2,100.0,100.0,1081,1610,1448,1024,0,59,7.491,2246,3844,7.491,3.741,3.75,0.009,9.43,81.7,81.5,81.6,2,37.6206638624974,-122.496190543332,29.7,47.9,393.7,1.0,1.0,328.0,16.4,16.0,4.92,4.92,327.2,4.9,200.1,26.802343,10.961006,0,65422,2024-06-29T12:00:07.400Z
75,1719704650.68,7.5,37.6207188163332,-122.496276458175,17.7,17.7,26.5,52,36.4,14.881956,14.881956,10.06623,10.06623,-10.961006,0.447388,-7.82929,0.223694,-20.1,3.4,-58.8,301.2,312.4,11,4,0,0.0,0.0,-82.8,277.2,100.0,100.0,1024,1469,1268,1024,0,59,7.491,2246,3844,7.491,3.741,3.75,0.009,9.43,81.7,81.5,81.6,2,37.6206638624974,-122.496190543332,31.9,47.9,393.7,1.0,1.0,328.0,16.4,16.0,4.92,4.92,327.2,4.9,200.1,26.802343,10.961006,0,65422,2024-06-29T12:00:07.500Z
76,1719704650.78,7.6,37.6207222682022,-122.496281400583,18.3,18.3,29.1,53,38.3,15.047474,15.047474,10.06623,10.06623,-11.1847,0.447388,-7.82929,0.223694,-19.4,3.4,-58.9,301.1,311.4,11,4,0,0.0,0.0,-82.8,277.2,100.0,100.0,1024,1024,1169,1024,0,59,7.491,2246,3844,7.491,3.741,3.75,0.009,9.43,81.7,81.5,81.6,2,37.6206638624974,-122.496190543332,33.8,47.9,393.7,1.0,1.0,328.0,16.4,16.0,5.14,5.14,327.2,4.9,200.1,26.802343,10.961006,0,65422,2024-06-29T12:00:07.600Z
77,1719704650.88,7.7,37.62072719274,-122.496288338754,19.0,19.0,32.4,54,41.0,15.047474,15.047474,10.06623,10.06623,-11.1847,0.447388,-7.605596,0.223694,-15.1,2.7,-58.5,301.5,311.8,11,4,0,0.0,0.0,-82.8,277.2,100.0,100.0,1024,1024,1057,1024,0,59,7.491,2246,3844,7.491,3.741,3.75,0.009,9.43,81.7,81.5,81.6,2,37.6206638624974,-122.496190543332,36.5,47.9,393.7,1.0,1.0,328.0,16.4,16.0,4.92,5.14,327.2,4.9,200.1,26.802343,10.961006,0,65422,2024-06-29T12:00:07.700Z
78,1719704650.98,7.8,37.6207306683781,-122.496293219873,19.6,19.6,33.7,54,42.9,15.047474,15.047474,10.06623,10.06623,-11.1847,0.447388,-7.158208,0.223694,-7.0,1.3,-58.3,301.7,311.9,11,4,0,0.0,0.0,-82.8,277.2,100.0,100.0,1024,1024,1024,1024,0,59,7.491,2246,3844,7.491,3.741,3.75,0.009,9.43,81.7,81.5,81.6,2,37.6206638624974,-122.496190543332,38.3,47.9,393.7,1.0,1.0,328.0,16.4,16.0,4.92,5.14,327.2,4.9,200.1,26.802343,10.961006,0,65422,2024-06-29T12:00:07.800Z
79,1719704651.0700002,7.9,37.6207344971301,-122.496298611072,20.3,20.3,37.0,55,45.0,14.73157,15.047474,9.842536,10.06623,-10.961006,0.447388,-6.487126,0.223694,-2.4,0.9,-58.4,301.6,311.8,11,4,0,0.0,0.0,-82.8,277.2,100.0,100.0,1024,1024,1024,1024,0,59,7.412,2246,3844,7.412,3.705,3.707,0.009,9.43,81.7,81.5,81.6,2,37.6206638624974,-122.496190543332,40.4,47.9,393.7,1.0,1.0,328.0,16.4,16.0,5.14,5.14,327.2,4.9,200.1,26.802343,10.961006,0,65422,2024-06-29T12:00:07.900Z
80,1719704651.18,8.0,37.6207388254615,-122.496304976279,21.6,21.6,37.7,56,47.4,14.415685,15.047474,9.618842,10.06623,-10.737312,0.447388,-5.816044,0.223694,6.8,0.0,-58.0,302.0,310.6,11,4,0,0.0,0.0,-82.8,277.2,100.0,100.0,1024,1024,1024,1024,0,59,7.412,2246,3844,7.412,3.705,3.707,0.009,9.43,81.7,81.5,81.6,2,37.6206638624974,-122.496190543332,42.9,47.9,393.7,1.0,1.0,328.0,16.4,16.0,4.92,5.14,327.2,4.9,200.1,26.802343,10.961006,0,65422,2024-06-29T12:00:08.000Z
81,1719704651.2700002,8.1,37.6207424776609,-122.496310062133,22.6,22.6,45.9,57,49.4,13.783979,15.047474,9.171454,10.06623,-10.289924,0.447388,-5.368656,0.223694,21.1,-4.3,-59.1,300.9,312.1,11,4,0,0.0,0.0,-82.8,277.2,100.0,100.0,1024,1024,1024,1024,0,59,7.412,2246,3844,7.412,3.705,3.707,0.009,9.43,81.7,81.5,81.6,2,37.6206638624974,-122.496190543332,44.8,47.9,393.7,1.0,1.0,328.0,16.4,16.0,4.92,5.14,327.2,4.9,200.1,26.802343,10.961006,0,65422,2024-06-29T12:00:08.100Z
82,1719704651.37,8.2,37.6207458008967,-122.496314695069,23.9,23.9,51.5,59,51.2,12.669851,15.047474,8.500372,10.06623,-9.395148,0.447388,-4.921268,0.223694,20.6,-11.6,-60.7,299.3,312.1,11,4,0,0.0,0.0,-82.8,277.2,100.0,100.0,1024,1024,1024,1024,0,59,7.412,2246,3844,7.412,3.705,3.707,0.009,9.43,81.7,81.5,81.6,2,37.6206638624974,-122.496190543332,46.6,47.9,393.7,1.0,1.0,328.0,16.4,16.0,5.14,5.14,327.2,4.9,200.1,26.802343,10.961006,0,65422,2024-06-29T12:00:08.200Z
83,1719704651.48,8.3,37.6207489082273,-122.496319226616,24.9,24.9,63.6,60,52.9,12.058745,15.047474,7.82929,10.06623,-9.171454,0.447388,-4.026492,0.223694,22.9,-12.6,-61.2,298.8,310.8,11,4,0,0.0,0.0,-82.8,277.2,100.0,100.0,1024,1024,1024,1024,0,59,7.412,2246,3844,7.412,3.705,3.707,0.009,9.43,81.7,81.5,81.6,2,37.6206638624974,-122.496190543332,48.4,47.9,393.7,1.0,1.0,328.0,16.4,16.0,5.14,5.14,327.2,4.9,200.1,26.802343,10.961006,0,65422,2024-06-29T12:00:08.300Z
84,1719704651.5900002,8.4,37.620751707018,-122.496323600013,25.5,25.5,63.6,60,54.5,11.284913,15.047474,7.158208,10.06623,-8.724066,0.447388,-3.131716,0.223694,26.3,-11.1,-60.6,299.4,308.9,11,4,0,0.0,0.0,-82.8,277.2,100.0,100.0,1024,1024,1024,1024,0,59,7.412,2246,3844,7.412,3.705,3.707,0.009,9.43,81.7,81.5,81.6,2,37.6206638624974,-122.496190543332,50.0,47.9,393.7,1.0,1.0,328.0,16.4,16.0,5.14,5.14,327.2,4.9,200.1,26.802343,10.961006,0,65422,2024-06-29T12:00:08.400Z
85,1719704651.67,8.5,37.620754405635,-122.496327911769,25.9,25.9,63.6,61,56.1,10.340858,15.047474,6.487126,10.06623,-8.052984,0.447388,-2.23694,0.223694,27.8,-9.6,-60.6,299.4,308.3,11,4,0,0.0,0.0,-82.8,277.2,100.0,100.0,1024,1024,1024,1024,0,59,7.412,2246,3844,7.412,3.705,3.707,0.009,9.43,81.7,81.5,81.6,2,37.6206638624974,-122.496190543332,51.6,47.9,393.7,1.0,1.0,328.0,16.4,16.0,5.14,5.14,327.2,4.9,200.1,26.802343,10.961006,0,65422,2024-06-29T12:00:08.500Z
86,1719704651.77,8.6,37.6207566707455,-122.496331974521,26.2,26.2,63.6,61,57.6,9.44031,15.047474,5.59235,10.06623,-7.605596,0.447388,-1.342164,0.223694,28.2,-9.2,-60.5,299.5,305.1,11,4,0,0.0,0.0,-82.8,277.2,100.0,100.0,1024,1024,1024,1024,0,59,7.412,2246,3844,7.412,3.705,3.707,0.009,9.43,81.7,81.5,81.6,2,37.6206638624974,-122.496190543332,53.0,47.9,393.7,1.0,1.0,328.0,16.4,16.0,5.14,5.14,327.2,4.9,200.1,26.802343,10.961006,0,65422,2024-06-29T12:00:08.600Z
87,1719704651.8700001,8.7,37.6207585664904,-122.496335307055,26.5,26.5,63.6,61,58.7,8.503314,15.047474,4.921268,10.06623,-6.934514,0.447388,-0.671082,0.223694,29.3,-7.8,-60.1,299.9,305.6,11,4,0,0.0,0.0,-82.8,277.2,100.0,100.0,1024,1024,1024,1024,0,59,7.412,2246,3844,7.412,3.705,3.707,0.009,9.43,81.7,81.5,81.6,2,37.6206638624974,-122.496190543332,54.2,47.9,393.7,1.0,1.0,328.0,16.4,16.0,5.14,5.14,327.2,4.9,200.1,26.802343,10.961006,0,65422,2024-06-29T12:00:08.700Z
88,1719704651.99,8.8,37.620759969017,-122.496338566398,26.5,26.5,63.6,61,59.8,7.258861,15.047474,4.026492,10.06623,-6.039738,0.447388,-0.223694,0.223694,30.8,-5.3,-59.4,300.6,298.5,11,4,0,0.0,0.0,-82.8,277.2,100.0,100.0,1024,1024,1024,1024,0,59,7.412,2246,3844,7.412,3.705,3.707,0.009,9.43,81.7,81.5,81.6,2,37.6206638624974,-122.496190543332,55.3,47.9,393.7,1.0,1.0,328.0,16.4,16.0,5.14,5.14,327.2,4.9,200.1,26.802343,10.961006,0,65422,2024-06-29T12:00:08.800Z
89,1719704652.0700002,8.9,37.6207613281775,-122.496341295986,26.5,26.5,63.6,61,60.7,6.023145,15.047474,3.131716,10.06623,-5.144962,0.447388,0.0,0.223694,31.5,-3.3,-58.9,301.1,302.1,11,4,0,0.0,0.0,-82.8,277.2,100.0,100.0,1024,1024,1024,1024,0,59,7.412,2243,3844,7.412,3.705,3.707,0.009,9.058,81.7,81.5,81.6,2,37.6206638624974,-122.496190543332,56.2,47.9,393.7,1.0,1.0,328.0,16.4,16.0,5.14,5.14,327.2,4.9,200.1,26.802343,10.961006,0,65422,2024-06-29T12:00:08.900Z
90,1719704652.2,9.0,37.6207623436821,-122.496343665285,26.5,26.5,63.6,61,61.5,4.71883,15.047474,2.460634,10.06623,-4.026492,0.447388,0.0,0.223694,31.1,-1.6,-58.6,301.4,298.4,11,4,0,0.0,0.0,-82.8,277.2,100.0,100.0,1024,1024,1024,1024,0,59,7.412,2243,3844,7.412,3.705,3.707,0.009,9.058,81.7,81.5,81.6,2,37.6206638624974,-122.496190543332,56.9,47.9,393.7,1.0,1.0,328.0,16.4,16.0,5.14,5.14,327.2,4.9,200.1,26.802343,10.961006,0,65422,2024-06-29T12:00:09.000Z
91,1719704652.2700002,9.1,37.6207630477596,-122.496345274493,26.5,26.5,63.6,61,62.0,3.302802,15.047474,1.565858,10.06623,-2.908022,0.447388,0.0,0.223694,29.0,-0.4,-58.6,301.4,298.9,11,4,0,0.0,0.0,-82.8,277.2,100.0,100.0,1024,1024,1151,1024,0,59,7.412,2243,3844,7.412,3.705,3.707,0.009,9.058,81.7,81.5,81.6,2,37.6206638624974,-122.496190543332,57.5,47.9,393.7,1.0,1.0,328.0,16.4,16.0,5.14,5.14,327.2,4.9,200.1,26.802343,10.961006,0,65422,2024-06-29T12:00:09.100Z
92,1719704652.37,9.2,37.6207631933212,-122.496346039905,26.5,26.5,63.6,61,62.3,2.000779,15.047474,0.894776,10.06623,-1.789552,0.447388,0.0,0.223694,23.3,0.1,-58.2,301.8,283.5,11,4,0,0.0,0.0,-82.8,277.2,100.0,100.0,1024,1024,1288,1024,0,59,7.51,2243,3844,7.51,3.755,3.756,0.009,9.058,81.7,81.5,81.6,2,37.6206638624974,-122.496190543332,57.7,47.9,393.7,1.0,1.0,328.0,16.4,16.0,5.14,5.14,327.2,4.9,200.1,26.802343,10.961006,0,65422,2024-06-29T12:00:09.200Z
93,1719704652.47,9.3,37.6207634629157,-122.496346816036,26.5,26.5,63.6,61,62.5,1.204629,15.047474,0.447388,10.06623,-1.11847,0.447388,0.0,0.223694,16.8,0.0,-58.3,301.7,293.6,11,4,0,0.0,0.0,-82.8,277.2,100.0,100.0,1024,1024,1288,1024,0,59,7.51,2243,3844,7.51,3.755,3.756,0.009,9.058,81.7,81.5,81.6,2,37.6206638624974,-122.496190543332,57.9,47.9,393.7,1.0,1.0,328.0,16.4,16.0,5.14,5.14,327.2,4.9,200.1,26.802343,10.961006,0,65422,2024-06-29T12:00:09.300Z
94,1719704652.57,9.4,37.620763447298,-122.496346471721,26.5,26.5,63.6,61,62.6,0.447388,15.047474,0.0,10.06623,-0.447388,0.447388,-0.447388,0.223694,9.9,1.3,-58.0,302.0,93.2,11,4,0,0.0,0.0,-82.8,277.2,100.0,100.0,1024,1024,1288,1024,0,59,7.51,2243,3844,7.51,3.755,3.756,0.009,9.058,81.7,81.5,81.6,2,37.6206638624974,-122.496190543332,57.8,47.9,393.7,1.0,1.0,328.0,16.4,16.0,5.14,5.14,327.2,4.9,200.1,26.802343,10.961006,0,65422,2024-06-29T12:00:09.400Z
95,1719704652.67,9.5,37.6207634710971,-122.49634647595,26.9,26.9,63.6,62,62.6,0.0,15.047474,0.0,10.06623,0.0,0.447388,-1.342164,0.223694,4.6,1.3,-59.5,300.5,,11,4,0,0.0,0.0,-82.8,277.2,100.0,100.0,1024,1030,1286,1024,0,59,7.51,2243,3844,7.51,3.755,3.756,0.009,9.058,81.7,81.5,81.6,2,37.6206638624974,-122.496190543332,57.8,47.9,393.7,1.0,1.0,328.0,16.4,16.0,5.14,5.14,327.2,4.9,200.1,26.802343,10.961006,0,65422,2024-06-29T12:00:09.500Z
96,1719704652.77,9.6,37.6207635763425,-122.496346474944,26.9,26.9,63.6,62,62.7,0.0,15.047474,0.0,10.06623,0.0,0.447388,-1.789552,0.223694,6.2,-1.9,-58.6,301.4,,11,4,0,0.0,0.0,-82.8,277.2,100.0,100.0,1024,1126,1205,1024,0,59,7.51,2243,3844,7.51,3.755,3.756,0.009,9.058,81.7,81.5,81.6,2,37.6206638624974,-122.496190543332,57.9,47.9,393.7,1.0,1.0,328.0,16.4,16.0,5.14,5.14,327.2,4.9,200.1,26.802343,10.961006,0,65422,2024-06-29T12:00:09.600Z
97,1719704652.8700001,9.7,37.6207634530379,-122.496346128844,27.2,27.2,63.6,62,62.8,0.316351,15.047474,-0.223694,10.06623,0.223694,0.447388,-2.013246,0.223694,2.8,-2.1,-57.7,302.3,114.2,11,4,0,0.0,0.0,-82.8,277.2,100.0,100.0,1024,1126,1205,1024,0,59,7.51,2243,3844,7.51,3.755,3.756,0.009,9.058,81.7,81.5,81.6,2,37.6206638624974,-122.496190543332,57.8,47.9,393.7,1.0,1.0,328.0,16.4,16.0,5.14,5.14,327.2,4.9,200.1,26.802343,10.961006,0,65422,2024-06-29T12:00:09.700Z
98,1719704652.9699998,9.8,37.6207632498462,-122.49634576757,27.5,27.5,63.6,62,62.9,0.500194,15.047474,-0.223694,10.06623,0.447388,0.447388,-2.23694,0.223694,-7.1,-2.9,-57.5,302.5,125.3,11,4,0,0.0,0.0,-82.8,277.2,100.0,100.0,1024,1420,1050,1024,0,59,7.51,2243,3844,7.51,3.755,3.756,0.009,9.058,81.7,81.5,81.6,2,37.6206638624974,-122.496190543332,57.6,47.9,393.7,1.0,1.0,328.0,16.4,16.0,5.14,5.14,327.2,4.9,200.1,26.802343,10.961006,0,65422,2024-06-29T12:00:09.800Z
99,1719704653.0700002,9.9,37.6207630910229,-122.496345357635,27.8,27.8,63.6,63,63.0,0.316351,15.047474,-0.223694,10.06623,0.223694,0.447388,-1.342164,0.223694,-14.1,-1.7,-57.6,302.4,116.0,11,4,0,0.0,0.0,-82.8,277.2,100.0,100.0,1024,1506,1024,1024,0,59,7.51,2242,3844,7.51,3.755,3.756,0.009,4.952,81.9,81.5,81.8,2,37.6206638624974,-122.496190543332,57.5,47.9,393.7,1.0,1.0,328.0,16.4,16.0,5.14,5.14,327.2,4.9,200.1,26.802343,10.961006,0,65422,2024-06-29T12:00:09.900Z
100,1719704653.1699998,10.0,37.6207627681076,-122.496345192573,28.2,28.2,63.6,63,63.2,0.316351,15.047474,-0.223694,10.06623,0.223694,0.447388,-0.447388,0.223694,-12.7,-1.5,-58.2,301.8,157.9,11,4,0,0.0,0.0,-82.8,277.2,100.0,100.0,1024,1506,1024,1024,0,59,7.51,2242,3844,7.51,3.755,3.756,0.009,4.952,81.9,81.5,81.8,2,37.6206638624974,-122.496190543332,57.4,47.9,393.7,1.0,1.0,328.0,16.4,16.0,4.92,5.14,327.2,4.9,200.1,26.802343,10.961006,0,65422,2024-06-29T12:00:10.000Z
101,1719704653.2700002,10.1,37.6207626616799,-122.496344959608,28.2,28.2,63.6,63,63.2,0.0,15.047474,0.0,10.06623,0.0,0.447388,0.0,0.223694,-9.8,0.3,-58.4,301.6,,11,4,0,0.0,0.0,-82.8,277.2,100.0,100.0,1024,1575,1024,1024,0,59,7.51,2242,3844,7.51,3.755,3.756,0.009,4.952,81.9,81.5,81.8,2,37.6206638624974,-122.496190543332,57.3,47.9,393.7,1.0,1.0,328.0,16.4,16.0,4.92,5.14,327.2,4.9,200.1,26.802343,10.961006,0,65422,2024-06-29T12:00:10.100Z
102,1719704653.37,10.2,37.6207623928737,-122.496344969364,28.2,28.2,63.6,63,63.3,0.0,15.047474,0.0,10.06623,0.0,0.447388,-0.223694,0.223694,-18.6,0.3,-58.1,301.9,,11,4,0,0.0,0.0,-82.8,277.2,100.0,100.0,1024,1592,1024,1024,0,59,7.51,2242,3844,7.51,3.755,3.756,0.009,4.952,81.9,81.5,81.8,2,37.6206638624974,-122.496190543332,57.2,47.9,393.7,1.0,1.0,328.0,16.4,16.0,4.92,5.14,327.2,4.9,200.1,26.802343,10.961006,0,65422,2024-06-29T12:00:10.200Z
103,1719704653.47,10.3,37.6207624370279,-122.496344965535,28.2,28.2,63.6,63,63.4,0.316351,15.047474,0.223694,10.06623,-0.223694,0.447388,0.223694,0.223694,-26.6,-1.9,-57.9,302.1,3.9,11,4,0,0.0,0.0,-82.8,277.2,100.0,100.0,1024,1592,1024,1024,0,59,7.51,2242,3844,7.51,3.755,3.756,0.009,4.952,81.9,81.5,81.8,2,37.6206638624974,-122.496190543332,57.3,47.9,393.7,1.0,1.0,328.0,16.4,16.0,4.92,5.14,327.2,4.9,200.1,26.802343,10.961006,0,65422,2024-06-29T12:00:10.300Z
104,1719704653.57,10.4,37.6207626463793,-122.49634531661,28.2,28.2,63.6,63,63.5,1.11847,15.047474,0.671082,10.06623,-0.894776,0.447388,0.447388,0.447388,-26.1,-3.0,-57.7,302.3,306.9,11,4,0,0.0,0.0,-82.8,277.2,100.0,100.0,1024,1610,1024,1024,0,59,7.51,2242,3844,7.51,3.755,3.756,0.009,4.952,81.9,81.5,81.8,2,37.6206638624974,-122.496190543332,57.4,47.9,393.7,1.0,1.0,328.0,16.4,16.0,4.92,5.14,327.2,4.9,200.1,26.802343,10.961006,0,65422,2024-06-29T12:00:10.400Z
105,1719704653.67,10.5,37.6207630094566,-122.496345990054,27.8,28.2,63.6,63,63.7,1.924288,15.047474,1.11847,10.06623,-1.565858,0.447388,0.223694,0.447388,-25.6,-2.5,-57.5,302.5,304.2,11,4,0,0.0,0.0,-82.8,277.2,100.0,100.0,1024,1619,1024,1024,0,59,7.51,2242,3844,7.51,3.755,3.756,0.009,4.952,81.9,81.5,81.8,2,37.6206638624974,-122.496190543332,57.6,47.9,393.7,1.0,1.0,328.0,16.4,16.0,4.92,5.14,327.2,4.9,200.1,26.802343,10.961006,0,65422,2024-06-29T12:00:10.500Z
106,1719704653.77,10.6,37.6207639157835,-122.496347508332,27.8,28.2,63.6,63,64.3,2.916612,15.047474,1.565858,10.06623,-2.460634,0.447388,0.0,0.447388,-25.6,-2.0,-58.2,301.8,307.0,11,4,0,0.0,0.0,-82.8,277.2,100.0,100.0,1024,1621,1024,1024,0,59,7.51,2242,3844,7.51,3.755,3.756,0.009,4.952,81.9,81.5,81.8,2,37.6206638624974,-122.496190543332,58.2,47.9,393.7,1.0,1.0,328.0,16.4,16.0,5.14,5.14,327.2,4.9,200.1,26.802343,10.961006,0,65422,2024-06-29T12:00:10.600Z
107,1719704653.8700001,10.7,37.6207645713977,-122.496348882109,27.8,28.2,63.6,63,64.7,3.913046,15.047474,2.013246,10.06623,-3.35541,0.447388,0.0,0.447388,-25.4,-2.7,-58.0,302.0,301.0,11,4,0,0.0,0.0,-82.8,277.2,100.0,100.0,1024,1624,1024,1024,0,59,7.51,2242,3844,7.51,3.755,3.756,0.009,4.952,81.9,81.5,81.8,2,37.6206638624974,-122.496190543332,58.6,47.9,393.7,1.0,1.0,328.0,16.4,16.0,5.14,5.14,327.2,4.9,200.1,26.802343,10.961006,0,65422,2024-06-29T12:00:10.700Z
108,1719704653.9699998,10.8,37.6207658641898,-122.496351111016,28.2,28.2,63.6,63,65.5,4.606141,15.047474,2.23694,10.06623,-4.026492,0.447388,0.0,0.447388,-27.6,-0.7,-57.6,302.4,306.2,11,4,0,0.0,0.0,-82.8,277.2,100.0,100.0,1024,1639,1024,1024,0,59,7.51,2242,3844,7.51,3.755,3.756,0.009,4.952,81.9,81.5,81.8,2,37.6206638624974,-122.496190543332,59.4,47.9,393.7,1.0,1.0,328.0,16.4,16.0,5.14,5.14,327.2,4.9,200.1,26.802343,10.961006,0,65422,2024-06-29T12:00:10.800Z
109,1719704654.0700002,10.9,37.6207669765441,-122.496353523525,28.2,28.2,63.6,63,66.3,5.410436,15.047474,2.684328,10.06623,-4.697574,0.447388,0.0,0.447388,-25.7,1.8,-58.0,302.0,300.2,11,4,0,0.0,0.0,-82.8,277.2,100.0,100.0,1024,1647,1024,1024,0,59,7.505,2242,3844,7.505,3.758,3.747,0.011,4.952,81.9,81.5,81.8,2,37.6206638624974,-122.496190543332,60.2,47.9,393.7,1.0,1.0,328.0,16.4,16.0,5.14,5.14,327.2,4.9,200.1,26.802343,10.961006,0,65422,2024-06-29T12:00:10.900Z
110,1719704654.1699998,11.0,37.6207686422826,-122.496356222774,28.2,28.2,63.6,63,67.3,6.330974,15.047474,3.35541,10.06623,-5.368656,0.447388,0.0,0.447388,-27.1,-0.7,-58.2,301.8,307.9,11,4,0,0.0,0.0,-82.8,277.2,100.0,100.0,1024,1650,1024,943,0,59,7.505,2242,3844,7.505,3.758,3.747,0.011,4.952,81.9,81.5,81.8,2,37.6206638624974,-122.496190543332,61.2,47.9,393.7,1.0,1.0,328.0,16.4,16.0,5.14,5.14,327.2,4.9,200.1,26.802343,10.961006,0,65422,2024-06-29T12:00:11.000Z
111,1719704654.2700002,11.1,37.6207700448007,-122.496359025349,28.2,28.2,63.6,63,68.3,7.020571,15.047474,3.579104,10.06623,-6.039738,0.447388,0.0,0.447388,-24.4,-3.5,-57.9,302.1,302.2,11,4,0,0.0,0.0,-82.9,277.1,100.0,100.0,1024,1644,1024,918,0,59,7.505,2242,3844,7.505,3.758,3.747,0.011,4.952,81.9,81.5,81.8,2,37.6206638624974,-122.496190543332,62.2,47.9,393.7,1.0,1.0,328.0,16.4,16.0,5.14,5.14,327.2,4.9,200.1,26.802343,10.961006,0,65422,2024-06-29T12:00:11.100Z
112,1719704654.37,11.2,37.6207717869996,-122.496362197396,28.2,28.2,63.6,63,69.4,7.713389,15.047474,3.802798,10.06623,-6.71082,0.447388,-0.223694,0.447388,-23.7,0.2,-58.1,301.9,304.7,11,4,0,0.0,0.0,-82.9,277.1,100.0,100.0,1024,1643,1024,918,0,59,7.505,2242,3844,7.505,3.758,3.747,0.011,4.952,81.9,81.5,81.8,2,37.6206638624974,-122.496190543332,63.3,47.9,393.7,1.0,1.0,328.0,16.4,16.0,5.14,5.14,327.2,4.9,200.1,26.802343,10.961006,0,65422,2024-06-29T12:00:11.200Z
113,1719704654.47,11.3,37.6207734008822,-122.496365599585,28.2,28.2,63.6,63,70.5,8.324903,15.047474,4.250186,10.06623,-7.158208,0.447388,-0.223694,0.447388,-25.5,1.4,-58.0,302.0,300.9,11,4,0,0.0,0.0,-83.0,277.0,100.0,100.0,1024,1641,1024,918,0,59,7.505,2242,3844,7.505,3.758,3.747,0.011,4.952,81.9,81.5,81.8,2,37.6206638624974,-122.496190543332,64.4,47.9,393.7,1.0,1.0,328.0,16.4,16.0,5.14,5.14,327.2,4.9,200.1,26.802343,10.961006,0,65422,2024-06-29T12:00:11.300Z
114,1719704654.57,11.4,37.6207752171599,-122.496369435602,28.2,28.2,63.6,63,71.8,8.82387,15.047474,4.47388,10.06623,-7.605596,0.447388,0.0,0.447388,-26.5,0.0,-58.2,301.8,300.8,11,4,0,0.0,0.0,-83.0,277.0,100.0,100.0,1024,1623,1024,915,0,59,7.505,2242,3844,7.505,3.758,3.747,0.011,4.952,81.9,81.5,81.8,2,37.6206638624974,-122.496190543332,65.7,47.9,393.7,1.0,1.0,328.0,16.4,16.0,5.36,5.36,327.2,4.9,200.1,26.802343,10.961006,0,65422,2024-06-29T12:00:11.400Z
115,1719704654.67,11.5,37.6207771959789,-122.496373477749,28.2,28.2,63.6,63,73.2,9.43766,15.047474,4.921268,10.06623,-8.052984,0.447388,0.0,0.447388,-26.4,0.3,-58.7,301.3,301.7,11,4,0,0.0,0.0,-83.1,276.9,100.0,100.0,1024,1622,1024,877,0,59,7.505,2242,3844,7.505,3.758,3.747,0.011,4.952,81.9,81.5,81.8,2,37.6206638624974,-122.496190543332,67.1,47.9,393.7,1.0,1.0,328.0,16.4,16.0,5.36,5.36,327.2,4.9,200.1,26.802343,10.961006,0,65422,2024-06-29T12:00:11.500Z
116,1719704654.77,11.6,37.6207792992076,-122.496378160666,28.2,28.2,63.6,63,74.8,10.128176,15.047474,5.144962,10.06623,-8.724066,0.447388,0.0,0.447388,-23.1,0.7,-57.8,302.2,299.5,11,4,0,0.0,0.0,-83.2,276.8,100.0,100.0,1024,1622,1024,877,0,59,7.505,2242,3844,7.505,3.758,3.747,0.011,4.952,81.9,81.5,81.8,2,37.6206638624974,-122.496190543332,68.6,47.9,393.7,1.0,1.0,328.0,16.4,16.0,5.36,5.36,327.2,4.9,200.1,26.802343,10.961006,0,65422,2024-06-29T12:00:11.600Z
117,1719704654.8300002,11.7,37.6207816185985,-122.496382997212,28.2,28.2,63.6,63,76.4,10.62723,15.047474,5.368656,10.06623,-9.171454,0.447388,-0.223694,0.447388,-21.9,1.2,-58.2,301.8,301.1,11,4,0,0.0,0.0,-83.4,276.6,100.0,100.0,1024,1623,1024,795,0,59,7.505,2242,3844,7.505,3.758,3.747,0.011,4.952,81.9,81.5,81.8,2,37.6206638624974,-122.496190543332,70.2,47.9,393.7,1.0,1.0,328.0,16.4,16.0,5.36,5.36,327.2,4.9,200.1,26.802343,10.961006,0,65422,2024-06-29T12:00:11.700Z
118,1719704654.9299998,11.8,37.6207837074005,-122.496387410487,28.2,28.2,63.6,63,77.9,10.93358,15.047474,5.59235,10.06623,-9.395148,0.447388,-0.223694,0.447388,-25.5,-0.7,-58.3,301.7,300.8,11,4,0,0.0,0.0,-83.6,276.4,100.0,100.0,1024,1623,1024,767,0,59,7.505,2242,3844,7.505,3.758,3.747,0.011,4.952,81.9,81.5,81.8,2,37.6206638624974,-122.496190543332,71.7,47.9,393.7,1.0,1.0,328.0,16.4,16.0,5.36,5.36,327.2,4.9,200.1,26.802343,10.961006,0,65422,2024-06-29T12:00:11.800Z
119,1719704655.0300002,11.9,37.620786223969,-122.496392562058,28.2,28.2,63.6,63,79.6,11.432492,15.047474,5.816044,10.06623,-9.842536,0.447388,0.223694,0.447388,-27.3,-5.1,-58.3,301.7,301.6,11,4,0,0.0,0.0,-84.1,275.9,100.0,100.0,1024,1624,1024,767,0,59,7.505,2239,3844,7.505,3.758,3.747,0.011,6.937,82.0,81.5,82.0,2,37.6206638624974,-122.496190543332,73.4,47.9,393.7,1.0,1.0,328.0,16.4,16.0,5.36,5.36,327.2,4.9,200.1,26.802343,10.961006,0,65422,2024-06-29T12:00:11.900Z
120,1719704655.1299999,12.0,37.6207884875203,-122.496397150054,28.2,28.2,63.6,63,81.2,11.931511,15.047474,6.039738,10.06623,-10.289924,0.447388,0.447388,0.447388,-20.0,-6.8,-59.0,301.0,301.9,11,4,0,0.0,0.0,-84.7,275.3,100.0,100.0,1024,1622,1024,767,0,59,7.505,2239,3844,7.505,3.758,3.747,0.011,6.937,82.0,81.5,82.0,2,37.6206638624974,-122.496190543332,75.0,47.9,393.7,1.0,1.0,328.0,16.4,16.0,5.36,5.36,327.2,4.9,200.1,26.802343,10.961006,0,65422,2024-06-29T12:00:12.000Z
121,1719704655.23,12.1,37.6207908716005,-122.49640231865,28.2,28.2,63.6,63,82.9,12.514874,15.047474,6.039738,10.06623,-10.961006,0.447388,-0.223694,0.447388,-18.9,-4.7,-59.5,300.5,300.2,11,4,0,0.0,0.0,-85.3,274.7,100.0,100.0,1024,1610,1024,770,0,59,7.505,2239,3844,7.505,3.758,3.747,0.011,6.937,82.0,81.5,82.0,2,37.6206638624974,-122.496190543332,76.7,47.9,393.7,1.0,1.0,328.0,16.4,16.0,5.36,5.36,327.2,4.9,200.1,26.802343,10.961006,0,65422,2024-06-29T12:00:12.100Z
122,1719704655.33,12.2,37.6207936709995,-122.496408929834,28.2,28.2,63.6,63,85.1,12.711252,15.047474,6.039738,10.06623,-11.1847,0.447388,0.0,0.447388,-23.4,-5.3,-59.7,300.3,298.1,11,4,0,0.0,0.0,-86.0,274.0,100.0,100.0,1024,1608,1024,784,0,59,7.497,2239,3844,7.497,3.747,3.751,0.011,6.937,82.0,81.5,82.0,2,37.6206638624974,-122.496190543332,78.8,47.9,393.7,1.0,1.0,328.0,16.4,16.0,5.36,5.36,327.2,4.9,200.1,26.802343,10.961006,0,65422,2024-06-29T12:00:12.200Z
123,1719704655.43,12.3,37.6207960687954,-122.496414476836,28.2,28.2,63.6,63,86.9,13.106635,15.047474,6.039738,10.06623,-11.632088,0.447388,0.223694,0.447388,-20.3,-3.9,-61.0,299.0,298.6,11,4,0,0.0,0.0,-86.7,273.3,100.0,100.0,1024,1608,1024,812,0,59,7.497,2239,3844,7.497,3.747,3.751,0.011,6.937,82.0,81.5,82.0,2,37.6206638624974,-122.496190543332,80.7,47.9,393.7,1.0,1.0,328.0,16.4,16.0,5.36,5.36,327.2,4.9,200.1,26.802343,10.961006,0,65422,2024-06-29T12:00:12.300Z
124,1719704655.54,12.4,37.6207986782386,-122.496420724799,28.2,28.2,63.6,63,89.0,13.606774,15.047474,6.263432,10.06623,-12.079476,0.447388,0.0,0.447388,-19.7,-2.7,-61.6,298.4,297.8,11,4,0,0.0,0.0,-87.3,272.7,100.0,100.0,1024,1608,1024,814,0,59,7.497,2239,3844,7.497,3.747,3.751,0.011,6.937,82.0,81.5,82.0,2,37.6206638624974,-122.496190543332,82.7,47.9,393.7,1.0,1.0,328.0,16.4,16.0,5.36,5.36,327.2,4.9,200.1,26.802343,10.961006,0,65422,2024-06-29T12:00:12.400Z
125,1719704655.64,12.5,37.6208012614755,-122.496427045618,28.2,28.2,63.6,63,91.0,14.005459,15.047474,6.263432,10.06623,-12.526864,0.447388,0.0,0.447388,-17.5,-2.3,-62.1,297.9,297.2,11,4,0,0.0,0.0,-87.9,272.1,100.0,100.0,1024,1610,1024,814,0,59,7.497,2239,3844,7.497,3.747,3.751,0.011,6.937,82.0,81.5,82.0,2,37.6206638624974,-122.496190543332,84.7,47.9,393.7,1.0,1.0,328.0,16.4,16.0,5.36,5.36,327.2,4.9,200.1,26.802343,10.961006,0,65422,2024-06-29T12:00:12.500Z
126,1719704655.74,12.6,37.6208040357646,-122.496433555348,28.2,28.2,63.6,63,93.1,14.305926,15.047474,6.487126,10.06623,-12.750558,0.447388,0.0,0.447388,-16.7,-2.3,-63.1,296.9,298.2,11,4,0,0.0,0.0,-88.4,271.6,100.0,100.0,1024,1608,1024,816,0,59,7.497,2239,3844,7.497,3.747,3.751,0.011,6.937,82.0,81.5,82.0,2,37.6206638624974,-122.496190543332,86.8,47.9,393.7,1.0,1.0,328.0,16.4,16.0,5.36,5.36,327.2,4.9,200.1,26.802343,10.961006,0,65422,2024-06-29T12:00:12.600Z
127,1719704655.84,12.7,37.6208063660955,-122.496439483418,28.2,28.2,63.6,63,95.1,14.407005,15.047474,6.263432,10.06623,-12.974252,0.447388,-0.223694,0.447388,-18.2,-1.7,-63.3,296.7,296.3,11,4,0,0.0,0.0,-88.8,271.2,100.0,100.0,1024,1599,1024,831,0,59,7.497,2239,3844,7.497,3.747,3.751,0.011,6.937,82.0,81.5,82.0,2,37.6206638624974,-122.496190543332,88.7,47.9,393.7,1.0,1.0,328.0,16.4,16.0,5.36,5.36,327.2,4.9,200.1,26.802343,10.961006,0,65422,2024-06-29T12:00:12.700Z
128,1719704655.94,12.8,37.6208090927094,-122.496446652596,28.2,28.2,63.6,63,97.4,14.608776,15.047474,6.263432,10.06623,-13.197946,0.447388,0.0,0.447388,-20.4,-2.8,-63.6,296.4,295.6,11,4,0,0.0,0.0,-89.3,270.7,100.0,100.0,1024,1590,1024,889,0,59,7.497,2239,3844,7.497,3.747,3.751,0.011,6.937,82.0,81.5,82.0,2,37.6206638624974,-122.496190543332,91.0,47.9,393.7,1.0,1.0,328.0,16.4,16.0,5.36,5.36,327.2,4.9,200.1,26.802343,10.961006,0,65422,2024-06-29T12:00:12.800Z
129,1719704656.04,12.9,37.6208115549804,-122.496453113417,28.2,28.2,63.6,63,99.4,14.811178,15.047474,6.263432,10.06623,-13.42164,0.447388,0.223694,0.447388,-18.3,-4.1,-64.2,295.8,295.6,11,4,0,0.0,0.0,-89.7,270.3,100.0,100.0,1024,1587,1024,893,0,59,7.497,2237,3844,7.497,3.747,3.751,0.011,7.407,82.0,81.5,82.0,2,37.6206638624974,-122.496190543332,93.0,47.9,393.7,1.0,1.0,328.0,16.4,16.0,5.36,5.36,327.2,4.9,200.1,26.802343,10.961006,0,65422,2024-06-29T12:00:12.900Z
130,1719704656.14,13.0,37.6208143433451,-122.496460863109,28.2,28.2,63.6,63,101.9,15.217769,15.217769,6.263432,10.06623,-13.869028,0.447388,0.0,0.447388,-17.4,-2.3,-64.8,295.2,294.4,11,4,0,0.0,0.0,-90.0,270.0,100.0,100.0,1024,1591,1024,892,0,59,7.497,2237,3844,7.497,3.747,3.751,0.011,7.407,82.0,81.5,82.0,2,37.6206638624974,-122.496190543332,95.4,47.9,393.7,1.0,1.0,328.0,16.4,16.0,5.59,5.59,327.2,4.9,200.1,26.802343,10.961006,0,65422,2024-06-29T12:00:13.000Z
131,1719704656.24,13.1,37.6208167597143,-122.496467726283,28.2,28.2,63.6,63,104.1,15.626591,15.626591,6.263432,10.06623,-14.316416,0.447388,-0.223694,0.447388,-15.7,-1.4,-65.3,294.7,293.9,11,4,0,0.0,0.0,-90.2,269.8,100.0,100.0,1024,1590,1024,893,0,59,7.497,2237,3844,7.497,3.747,3.751,0.011,7.407,82.0,81.5,82.0,2,37.6206638624974,-122.496190543332,97.6,47.9,393.7,1.0,1.0,328.0,16.4,16.0,5.59,5.59,327.2,4.9,200.1,26.802343,10.961006,0,65422,2024-06-29T12:00:13.100Z
